{"type":"FeatureCollection","features":[{"type":"Feature","geometry":{"type":"Point","coordinates":["7.2500","43.7000"]},"properties":{"name":"Ab officia voluptates nihil blanditiis et sed.","description":"Voluptatum qui ullam ad molestiae velit occaecati.","address":"Voluptatum qui ullam ad molestiae velit occaecati.","phone":"07 08 07 05 04","image":"technics"}},{"type":"Feature","geometry":{"type":"Point","coordinates":[null,null]},"properties":{"name":"Eaque autem quisquam voluptas eveniet.","description":"Nostrum voluptate aliquam iure.","address":"Nostrum voluptate aliquam iure.","phone":"07 08 07 05 04","image":"transport"}},{"type":"Feature","geometry":{"type":"Point","coordinates":[null,null]},"properties":{"name":"Ducimus aperiam ut et quia.","description":"Impedit asperiores et doloremque voluptatem minus excepturi.","address":"Impedit asperiores et doloremque voluptatem minus excepturi.","phone":"07 08 07 05 04","image":"sports"}},{"type":"Feature","geometry":{"type":"Point","coordinates":[null,null]},"properties":{"name":"Provident perspiciatis rerum modi qui vel rerum cum.","description":"Officia mollitia et et ducimus.","address":"Officia mollitia et et ducimus.","phone":"07 08 07 05 04","image":"transport"}},{"type":"Feature","geometry":{"type":"Point","coordinates":[null,null]},"properties":{"name":"Asperiores placeat delectus totam.","description":"A reiciendis quas iste voluptatem amet dolorum eum.","address":"A reiciendis quas iste voluptatem amet dolorum eum.","phone":"07 08 07 05 04","image":"sports"}},{"type":"Feature","geometry":{"type":"Point","coordinates":[null,null]},"properties":{"name":"Eveniet quaerat nobis aut.","description":"Deleniti totam et voluptatem sed nam consectetur beatae.","address":"Deleniti totam et voluptatem sed nam consectetur beatae.","phone":"07 08 07 05 04","image":"food"}},{"type":"Feature","geometry":{"type":"Point","coordinates":[null,null]},"properties":{"name":"Ullam ut perferendis atque.","description":"Numquam dolores aliquam dolorum natus facere dolores iure.","address":"Numquam dolores aliquam dolorum natus facere dolores iure.","phone":"07 08 07 05 04","image":"nature"}},{"type":"Feature","geometry":{"type":"Point","coordinates":[null,null]},"properties":{"name":"Iste temporibus porro rerum rem magnam dolor.","description":"Cumque in enim modi ea ad sit.","address":"Cumque in enim modi ea ad sit.","phone":"07 08 07 05 04","image":"technics"}},{"type":"Feature","geometry":{"type":"Point","coordinates":[null,null]},"properties":{"name":"Hic quia voluptas quae.","description":"Et quam rerum hic.","address":"Et quam rerum hic.","phone":"07 08 07 05 04","image":"technics"}},{"type":"Feature","geometry":{"type":"Point","coordinates":[null,null]},"properties":{"name":"Alias consequatur odio excepturi eius.","description":"Eaque minus aliquid quia labore.","address":"Eaque minus aliquid quia labore.","phone":"07 08 07 05 04","image":"fashion"}},{"type":"Feature","geometry":{"type":"Point","coordinates":[null,null]},"properties":{"name":"Libero veritatis minima quos hic.","description":"Aspernatur perspiciatis labore quidem dignissimos fugit distinctio omnis distinctio.","address":"Aspernatur perspiciatis labore quidem dignissimos fugit distinctio omnis distinctio.","phone":"07 08 07 05 04","image":"transport"}},{"type":"Feature","geometry":{"type":"Point","coordinates":[null,null]},"properties":{"name":"Rerum nulla hic similique repellendus est.","description":"Autem cupiditate dolor minima quod et enim et voluptatum.","address":"Autem cupiditate dolor minima quod et enim et voluptatum.","phone":"07 08 07 05 04","image":"nature"}}]}
